[
  {
    "title": "꽃마리리필스토어",
    "lat": 33.484055,
    "lng": 126.547821,
    "rat": 5.0,
    "address": "제주특별자치도 제주시 인다11길 29 1층 (아라일동)",
    "tel": "064-755-6883"
  },
  {
    "title": "협동상회",
    "lat": 37.669268,
    "lng": 127.112345,
    "rat": 4.5,
    "address": "경기 남양주시 덕송3로 27 (별내동) 위스테이 아파트상가 ",
    "tel": ""
  },
  {
    "title": "산두로상점 (일산 제로웨이스트 숍)",
    "lat": 37.667344,
    "lng": 126.784691,
    "rat": "",
    "address": "경기도 고양시 일산동구 산두로 109번길 32 정발산동 1346-6",
    "tel": ""
  },
  {
    "title": "오즈타운",
    "lat": 0,
    "lng": 0,
    "rat": 5.0,
    "address": "서울 마포구 동교로 272-8 2층 (연남동)",
    "tel": ""
  },
  {
    "title": "전주푸드직매장 송천점",
    "lat": 37.563514,
    "lng": 126.926077,
    "rat": 3.7,
    "address": "전북 전주시 덕진구 천마산로 130 (송천동1가)",
    "tel": "063-255-2365"
  },
  {
    "title": "푸른별상점(소심한토끼공방 내 샵인샵)",
    "lat": 36.782651,
    "lng": 127.161318,
    "rat": "",
    "address": "충남 천안시 동남구 청수12로 41-51 (삼룡동)",
    "tel": ""
  },
  {
    "title": "성미산마을회관(온동네순환거점)",
    "lat": 37.558572,
    "lng": 126.909673,
    "rat": 5.0,
    "address": "서울 마포구 성미산로3길 2 (성산동)",
    "tel": "02-3144-6884"
  },
  {
    "title": "성남 자원순환가게 신흥이re100",
    "lat": 37.448131,
    "lng": 127.143701,
    "rat": 5.0,
    "address": "경기 성남시 수정구 신흥동 98",
    "tel": "031-751-5515"
  },
  {
    "title": "리사이클링 마켓",
    "lat": 37.665418,
    "lng": 127.067068,
    "rat": "",
    "address": "서울 노원구 상계동 452-1",
    "tel": ""
  },
  {
    "title": "지구별서점",
    "lat": 34.79397,
    "lng": 126.379733,
    "rat": "",
    "address": "전남 목포시 수문로 63 (남교동)",
    "tel": ""
  },
  {
    "title": "지구인의놀이터",
    "lat": 37.283281,
    "lng": 127.01447,
    "rat": "",
    "address": "경기 수원시 팔달구 신풍로23번길 4 1층 (신풍동)",
    "tel": ""
  },
  {
    "title": "아로마티카 제로스테이션",
    "lat": 37.52074,
    "lng": 127.019409,
    "rat": "",
    "address": "서울 강남구 도산대로1길 62 1층 (신사동)",
    "tel": "02-1600-3689"
  },
  {
    "title": "광안세탁소",
    "lat": 35.162862,
    "lng": 129.108565,
    "rat": 5.0,
    "address": "부산 수영구 민락로33번길 5 (민락동)",
    "tel": ""
  },
  {
    "title": "용기내가게",
    "lat": 37.335535,
    "lng": 127.092701,
    "rat": "",
    "address": "경기 용인시 수지구 수풍로131번길 8 (동천동)",
    "tel": ""
  },
  {
    "title": "1.5도씨",
    "lat": 37.483529,
    "lng": 126.912628,
    "rat": "",
    "address": "서울 관악구 조원로18길 15 (신림동)",
    "tel": "010-9201-9173"
  },
  {
    "title": "모모책방",
    "lat": 37.23928,
    "lng": 126.868374,
    "rat": 3.7,
    "address": "경기 화성시 봉담읍 오래3길 7 1층 (봉담읍)",
    "tel": ""
  },
  {
    "title": "단정",
    "lat": 35.83632,
    "lng": 128.584691,
    "rat": "",
    "address": "대구 남구 자유6길 11-12 1층 (대명동)",
    "tel": ""
  },
  {
    "title": "협동플랫폼카페이웃",
    "lat": 37.579952,
    "lng": 126.928095,
    "rat": 5.0,
    "address": "서울 서대문구 가좌로 77 (홍은동)",
    "tel": "070-8118-0326"
  },
  {
    "title": "친한가게",
    "lat": 37.655113,
    "lng": 127.247925,
    "rat": "",
    "address": "경기 남양주시 호평동 650-9",
    "tel": ""
  },
  {
    "title": "올바른상점",
    "lat": 37.190672,
    "lng": 127.080014,
    "rat": "",
    "address": "경기 화성시 10용사로 563 (반송동)",
    "tel": ""
  },
  {
    "title": "지구살림터",
    "lat": 37.544268,
    "lng": 126.873974,
    "rat": 5.0,
    "address": "서울 양천구 목동중앙북로16길 41 1층 (목동)",
    "tel": "070-7670-1004"
  },
  {
    "title": "아토모스",
    "lat": 37.591082,
    "lng": 127.004378,
    "rat": 5.0,
    "address": "서울 성북구 성북로8길 11 1층 101호 (성북동)",
    "tel": "02-6012-2102"
  },
  {
    "title": "아름다운가게 송파가락점",
    "lat": 37.494812,
    "lng": 127.121915,
    "rat": "",
    "address": "서울 송파구 중대로 127 1층 109호 (가락동)",
    "tel": ""
  },
  {
    "title": "나마스떼 민박",
    "lat": 35.835128,
    "lng": 129.212979,
    "rat": 5.0,
    "address": "경북 경주시 첨성로99번길 22-4 (황남동)",
    "tel": ""
  },
  {
    "title": "지구공방",
    "lat": 35.991529,
    "lng": 129.405652,
    "rat": "",
    "address": "경북 포항시 남구 청림동 1178-15",
    "tel": ""
  },
  {
    "title": "달플라워",
    "lat": 37.258838,
    "lng": 127.040509,
    "rat": 5.0,
    "address": "경기 수원시 영통구 효원로358번길 7-2 101호 (매탄동)",
    "tel": "031-8002-7900"
  },
  {
    "title": "착해가지구",
    "lat": 35.551536,
    "lng": 129.266998,
    "rat": 5.0,
    "address": "울산 남구 삼호로7번길 25 (무거동)",
    "tel": ""
  },
  {
    "title": "일점오도씨",
    "lat": 37.483528,
    "lng": 126.912629,
    "rat": "",
    "address": "서울 관악구 조원로18길 15 1층 (신림동)",
    "tel": ""
  },
  {
    "title": "채움소",
    "lat": 37.486386,
    "lng": 126.559379,
    "rat": "",
    "address": "인천 중구 하늘달빛로 78 영종 힐링프라자 108호",
    "tel": "070-8065-2776"
  },
  {
    "title": "마켓발견",
    "lat": 37.38813,
    "lng": 126.996851,
    "rat": 5.0,
    "address": "경기 의왕시 백운로 587-1 1층 (포일동)",
    "tel": "070-7755-5182"
  },
  {
    "title": "숲을공방",
    "lat": 35.845498,
    "lng": 129.21288,
    "rat": "",
    "address": "경북 경주시 화랑로107번길 10 1층 (동부동)",
    "tel": ""
  },
  {
    "title": "플라프리",
    "lat": 37.490586,
    "lng": 126.982173,
    "rat": "",
    "address": "서울 동작구 동작대로 157-4 사당동 79-29",
    "tel": ""
  },
  {
    "title": "소로소로",
    "lat": 33.471198,
    "lng": 126.786697,
    "rat": 4.5,
    "address": "제주 제주시 구좌읍 송당7길 3 (구좌읍 송당리)",
    "tel": "010-3679-9938"
  },
  {
    "title": "모악산의아침",
    "lat": 35.765962,
    "lng": 127.089676,
    "rat": "",
    "address": "전북 전주시 완산구 삼천3동 중인2길 25-48 (중인동)",
    "tel": "010-9286-7975"
  },
  {
    "title": "조용한흥분색",
    "lat": 35.978278,
    "lng": 126.716327,
    "rat": 5.0,
    "address": "전북 군산시 풍문2길 5-2",
    "tel": "010-6833-8770"
  },
  {
    "title": "보탬상점",
    "lat": 37.601257,
    "lng": 127.076795,
    "rat": 5.0,
    "address": "서울 중랑구 봉화산로22길 2 1층 (중화동)",
    "tel": "010-2175-2026"
  },
  {
    "title": "더쓸모협동조합",
    "lat": 35.88465,
    "lng": 128.611893,
    "rat": "",
    "address": "대구 북구 대현동 17-59",
    "tel": ""
  },
  {
    "title": "All바른샵",
    "lat": 37.188879,
    "lng": 127.072036,
    "rat": "",
    "address": "경기 화성시 반송동 190-2",
    "tel": ""
  },
  {
    "title": "재재상점",
    "lat": 37.265839,
    "lng": 126.982468,
    "rat": "",
    "address": "경기 수원시 권선구 서둔로 166 (서둔동)",
    "tel": ""
  },
  {
    "title": "지구인의 놀이터",
    "lat": 37.283281,
    "lng": 127.01447,
    "rat": "",
    "address": "경기 수원시 팔달구 신풍동 185",
    "tel": ""
  },
  {
    "title": "더 바디샵 강남대로점",
    "lat": 37.502408,
    "lng": 127.02512,
    "rat": 3.3,
    "address": "서울 서초구 강남대로 449 1,2층 (서초동)",
    "tel": "02-3482-4526"
  },
  {
    "title": "르라보 가로수길점",
    "lat": 37.521721,
    "lng": 127.021943,
    "rat": 2.7,
    "address": "서울 강남구 압구정로10길 28 1층 (신사동)",
    "tel": "02-541-7945"
  },
  {
    "title": "동선나눔점방",
    "lat": 37.593938,
    "lng": 127.020394,
    "rat": 1.8,
    "address": "서울 성북구 동소문로26길 27 (동선동3가)",
    "tel": "02-2241-5080"
  },
  {
    "title": "코뿔소책방",
    "lat": 37.651277,
    "lng": 126.695194,
    "rat": 5.0,
    "address": "경기 김포시 김포한강11로438번길 123 상가동 109호",
    "tel": ""
  },
  {
    "title": "풀무학교 생협",
    "lat": 36.557411,
    "lng": 126.685161,
    "rat": 5.0,
    "address": "충남 홍성군 홍동면 광금남로 658-8 (홍동면)",
    "tel": ""
  },
  {
    "title": "마그앤그래",
    "lat": 37.247351,
    "lng": 127.026806,
    "rat": "",
    "address": "경기 수원시 권선구 세권로316번길 49 현대아파트상가 2층",
    "tel": ""
  },
  {
    "title": "에르마나스",
    "lat": 37.327975,
    "lng": 127.942804,
    "rat": "",
    "address": "강원 원주시 남원로469번길 14-2 1층 (명륜동)",
    "tel": "010-4650-5230"
  },
  {
    "title": "율소리 에녹식품",
    "lat": 35.952523,
    "lng": 127.171291,
    "rat": "",
    "address": "전북 완주군 고산면 남봉로 134 (고산면)",
    "tel": "010-4650-5230"
  },
  {
    "title": "춘천여성협동조합 마더센터",
    "lat": 37.877727,
    "lng": 127.749651,
    "rat": "",
    "address": "강원 춘천시 백령로 214 (후평동)",
    "tel": "033-253-2125"
  },
  {
    "title": "내일상회",
    "lat": 37.760607,
    "lng": 128.905052,
    "rat": 5.0,
    "address": "강원 강릉시 용지각길8번길 3 (포남동)",
    "tel": ""
  },
  {
    "title": "노플라스틱 카페",
    "lat": 34.949732,
    "lng": 127.48573,
    "rat": 5.0,
    "address": "전남 순천시 중앙3길 6-6 1층 (장천동)",
    "tel": "061-745-0601"
  },
  {
    "title": "브릿지엣지",
    "lat": 37.502219,
    "lng": 126.954304,
    "rat": 5.0,
    "address": "서울 동작구 상도로53길 70 상도에스에이치빌 상가 311호",
    "tel": ""
  },
  {
    "title": "사직동그가게",
    "lat": 37.577038,
    "lng": 126.967803,
    "rat": 4.3,
    "address": "서울 종로구 사직로9길 18 (사직동)",
    "tel": "070-4045-6331"
  },
  {
    "title": "두더지손가게",
    "lat": 37.533238,
    "lng": 126.905138,
    "rat": 4.7,
    "address": "서울 영등포구 당산로52길 31-1 1층 (당산동6가)",
    "tel": ""
  },
  {
    "title": "카페기웃기웃",
    "lat": 37.554683,
    "lng": 126.933605,
    "rat": 4.8,
    "address": "서울 마포구 신촌로12다길 20 스테이하이오피스텔 1층",
    "tel": ""
  },
  {
    "title": "포포브레드",
    "lat": 37.56996,
    "lng": 126.931248,
    "rat": 4.9,
    "address": "서울 서대문구 증가로 18 (연희동)",
    "tel": "02-332-2044"
  },
  {
    "title": "앞으로의 빵집",
    "lat": 37.574657,
    "lng": 126.989345,
    "rat": 4.5,
    "address": "서울 종로구 삼일대로32가길 29-1 (익선동)",
    "tel": "010-6662-2943"
  },
  {
    "title": "페이퍼넛츠",
    "lat": 37.581205,
    "lng": 126.908223,
    "rat": 4.8,
    "address": "서울 서대문구 거북골로24길 37-8 1층 (북가좌동)",
    "tel": "02-6408-7799"
  },
  {
    "title": "본조르노베이커리",
    "lat": 33.49118,
    "lng": 126.476567,
    "rat": 4.7,
    "address": "제주특별자치도 제주시 다랑곶4길 68 (노형동",
    "tel": "010-3646-3473"
  },
  {
    "title": "달냥",
    "lat": 37.608414,
    "lng": 126.933751,
    "rat": 4.4,
    "address": "서울 은평구 통일로 684 서울혁신파크 상상청 1층",
    "tel": ""
  },
  {
    "title": "빛바람",
    "lat": 37.55912,
    "lng": 126.91705,
    "rat": 5.0,
    "address": "서울 마포구 월드컵북로 57 1층 101호 (성산동)",
    "tel": ""
  },
  {
    "title": "포레스테이블",
    "lat": 34.953868,
    "lng": 127.694707,
    "rat": 5.0,
    "address": "전남 광양시 자작길 39 1층 (마동)",
    "tel": "0507-1428-0420"
  },
  {
    "title": "쿠아레비 구산점",
    "lat": 37.61156,
    "lng": 126.916197,
    "rat": 4.5,
    "address": "서울 은평구 서오릉로 149 세웅그룹빌딩 1층 (구산동)",
    "tel": "02-356-7885"
  },
  {
    "title": "카페오두막",
    "lat": 37.382665,
    "lng": 126.957751,
    "rat": 5.0,
    "address": "경기 안양시 동안구 평촌대로127번길 40 1층 (호계동)",
    "tel": "031-382-3777"
  },
  {
    "title": "빵과장미",
    "lat": 35.135078,
    "lng": 126.794215,
    "rat": 4.8,
    "address": "광주 광산구 상도산길 54 (도산동)",
    "tel": ""
  },
  {
    "title": "곁愛(곁애)",
    "lat": 37.512454,
    "lng": 126.924262,
    "rat": 4.4,
    "address": "서울 영등포구 영등포로 420-6 (신길동)",
    "tel": "0507-1342-3877"
  },
  {
    "title": "얼스어스 서촌점",
    "lat": 37.585304,
    "lng": 126.971224,
    "rat": 4.3,
    "address": "서울 종로구 자하문로28가길 1 (청운효자동)",
    "tel": ""
  },
  {
    "title": "얼스어스",
    "lat": 37.564112,
    "lng": 126.923239,
    "rat": 3.9,
    "address": "서울 마포구 성미산로 150 (연남동) ",
    "tel": ""
  },
  {
    "title": "레트로카페33",
    "lat": 37.273663,
    "lng": 127.072546,
    "rat": 4.4,
    "address": "경기 용인시 기흥구 흥덕2로65번길 16-8 102호",
    "tel": "010-8008-8358"
  },
  {
    "title": "서스테이너블해빗",
    "lat": 37.554725,
    "lng": 126.976819,
    "rat": 4.7,
    "address": "서울 용산구 소월로2길 5 1층 (후암동)",
    "tel": "070-4235-8396"
  },
  {
    "title": "자양분",
    "lat": 36.336091,
    "lng": 127.446868,
    "rat": 5.0,
    "address": "대전 동구 동대전로 159 1층 (자양동)",
    "tel": ""
  },
  {
    "title": "보틀라운지",
    "lat": 37.575146,
    "lng": 126.928468,
    "rat": "",
    "address": "서울 서대문구 홍연길 26 1층 (연희동)",
    "tel": ""
  },
  {
    "title": "더 커먼",
    "lat": 35.867397,
    "lng": 128.606393,
    "rat": 4.7,
    "address": "대구 중구 국채보상로 741 (동인동4가)",
    "tel": ""
  },
  {
    "title": "무해공간",
    "lat": 37.435703,
    "lng": 127.141965,
    "rat": "",
    "address": "경기 성남시 중원구 원터로105번길 5-1 1층 (성남동)",
    "tel": ""
  },
  {
    "title": "심플소요",
    "lat": 37.278645,
    "lng": 127.112139,
    "rat": "",
    "address": "경기 용인시 기흥구 구갈로28번길 21-13 한양아파트 상가 3층",
    "tel": ""
  },
  {
    "title": "제로웨이스트 쑥",
    "lat": 35.267561,
    "lng": 129.234915,
    "rat": "",
    "address": "부산 기장군 일광면 이천리 777-2",
    "tel": ""
  },
  {
    "title": "농부애곳간",
    "lat": 35.302126,
    "lng": 127.974876,
    "rat": 5.0,
    "address": "경남 산청군 신안면 원지로 22-14 1층 (신안면)",
    "tel": "070-8866-7690"
  },
  {
    "title": "낯설여관 204호",
    "lat": 37.292066,
    "lng": 127.005112,
    "rat": 5.0,
    "address": "경기 수원시 장안구 영화로71번길 33 2층 (정자동)",
    "tel": "070-8064-0120"
  },
  {
    "title": "다시채움",
    "lat": 37.328615,
    "lng": 127.114251,
    "rat": "",
    "address": "경기 용인시 수지구 죽전동 484-9",
    "tel": ""
  },
  {
    "title": "용기내가게",
    "lat": 37.335535,
    "lng": 127.0927,
    "rat": "",
    "address": "경기 용인시 수지구 동천동 874-6",
    "tel": ""
  },
  {
    "title": "비그린(B:green)",
    "lat": 37.512638,
    "lng": 126.927198,
    "rat": "",
    "address": "서울 동작구 노량진로 10 1층 (대방동)",
    "tel": ""
  },
  {
    "title": "디어에코",
    "lat": 37.541228,
    "lng": 127.093785,
    "rat": 5.0,
    "address": "서울 광진구 아차산로65길 22 1층 (구의동)",
    "tel": ""
  },
  {
    "title": "오늘가게",
    "lat": 35.237552,
    "lng": 128.85905,
    "rat": 5.0,
    "address": "경남 김해시 우암로85번길 36-1 1층 (내동)",
    "tel": ""
  },
  {
    "title": "가치가게 리필스테이션",
    "lat": 37.256589,
    "lng": 127.019561,
    "rat": 5.0,
    "address": "경기 수원시 권선구 세권로 140 지하1층 (세류동)",
    "tel": "0507-1340-8781"
  },
  {
    "title": "지구맑음",
    "lat": 35.540481,
    "lng": 129.338574,
    "rat": "",
    "address": "울산 남구 삼산중로74번길 30 (삼산동)",
    "tel": ""
  },
  {
    "title": "레디투웰니스",
    "lat": 37.556982,
    "lng": 126.977669,
    "rat": "",
    "address": "서울 중구 퇴계로2길 9-8 4층 (남창동)",
    "tel": ""
  },
  {
    "title": "선선한주방",
    "lat": 35.032698,
    "lng": 126.71471,
    "rat": "",
    "address": "전남 나주시 금남길 50 (서내동)",
    "tel": ""
  },
  {
    "title": "늘미곡",
    "lat": 35.815782,
    "lng": 127.126401,
    "rat": 5.0,
    "address": "전북 전주시 완산구 선너머로 16 (중화산동2가)",
    "tel": "070-4240-0225"
  },
  {
    "title": "은영상점",
    "lat": 36.360745,
    "lng": 127.351235,
    "rat": 5.0,
    "address": "대전 유성구 대학로159번길 2 1층 (궁동)",
    "tel": ""
  },
  {
    "title": "지구상점",
    "lat": 35.009644,
    "lng": 126.791455,
    "rat": "",
    "address": "전남 나주시 그린로 229 103호 (빛가람동)",
    "tel": "010-3076-2980"
  },
  {
    "title": "소우주",
    "lat": 35.812699,
    "lng": 127.14644,
    "rat": "",
    "address": "전북 전주시 완산구 풍남문2길 98-4 (전동3가)",
    "tel": ""
  },
  {
    "title": "지구에티켓",
    "lat": 37.184058,
    "lng": 127.043488,
    "rat": 5.0,
    "address": "경기 오산시 세마역로19번길 52 101호 (세교동)",
    "tel": ""
  },
  {
    "title": "소중한모든것",
    "lat": 37.448381,
    "lng": 126.675865,
    "rat": 5.0,
    "address": "인천 남동구 인하로 617 1층 108호 (구월동)",
    "tel": "070-4266-0247"
  },
  {
    "title": "지구수호대 착한상점",
    "lat": 37.53097,
    "lng": 126.655778,
    "rat": 5.0,
    "address": "인천 서구 청라에메랄드로 99 지젤엠 지하1층 B동 87호",
    "tel": ""
  },
  {
    "title": "덕분애",
    "lat": 37.496907,
    "lng": 127.023483,
    "rat": "",
    "address": "서울 서초구 서초대로 389 진흥상가 2층 209호",
    "tel": "02-6959-4479"
  },
  {
    "title": "허그어웨일",
    "lat": 37.552617,
    "lng": 126.848485,
    "rat": 5.0,
    "address": "서울 강서구 화곡로55길 23 (화곡동)",
    "tel": "02-2038-7209"
  },
  {
    "title": "솝리필스테이션",
    "lat": 37.466923,
    "lng": 127.149517,
    "rat": 5.0,
    "address": "경기 성남시 수정구 위례광장로 21 1층 105호 (창곡동)",
    "tel": "010-4936-5049"
  },
  {
    "title": "동네마당 배움",
    "lat": 36.632197,
    "lng": 127.422783,
    "rat": "",
    "address": "충북 청주시 흥덕구 비하로57번길 38-8 (비하동)",
    "tel": ""
  },
  {
    "title": "타예르셀바",
    "lat": 35.813352,
    "lng": 128.523653,
    "rat": "",
    "address": "대구 달서구 월배로 80 진천대성스카이렉스 1층",
    "tel": ""
  },
  {
    "title": "제로스테이",
    "lat": 35.819332,
    "lng": 128.522311,
    "rat": 5.0,
    "address": "대구 달서구 진천로 114-17 (대천동)",
    "tel": "010-2228-4123"
  },
  {
    "title": "송정마을카페이공",
    "lat": 35.136447,
    "lng": 126.79819,
    "rat": 5.0,
    "address": "광주 광산구 송도로 257-1 (송정동)",
    "tel": ""
  },
  {
    "title": "파파스컷",
    "lat": 37.856289,
    "lng": 127.751338,
    "rat": 5.0,
    "address": "강원 춘천시 동내면 춘천순환로 61-15 1층 (동내면)",
    "tel": "033-262-6150"
  },
  {
    "title": "핸드메이드라이프",
    "lat": 33.224106,
    "lng": 126.261782,
    "rat": 5.0,
    "address": "제주특별자치도 서귀포시 대정읍 상모로 256 (대정읍)",
    "tel": ""
  },
  {
    "title": "천연제작소",
    "lat": 35.210844,
    "lng": 129.010567,
    "rat": 5.0,
    "address": "부산광역시 북구 덕천2동 덕천1길 93 2층 (덕천동)",
    "tel": "051-338-9619"
  },
  {
    "title": "협동조합농부장터",
    "lat": 35.920311,
    "lng": 128.551033,
    "rat": 4.0,
    "address": "대구 북구 학정로 137 (태전동)",
    "tel": "053-321-0909"
  },
  {
    "title": "한살림 제주담을매장",
    "lat": 33.489321,
    "lng": 126.470803,
    "rat": 3.0,
    "address": "제주특별자치도 제주시 월광로 12 2층 (노형동)",
    "tel": "064-745-5988"
  },
  {
    "title": "트랜스",
    "lat": 37.606711,
    "lng": 126.932606,
    "rat": 3.9,
    "address": "서울 은평구 통일로61길 4 1층 (녹번동)",
    "tel": "02-356-8757"
  },
  {
    "title": "웨이스트업소",
    "lat": 37.490246,
    "lng": 126.991671,
    "rat": "",
    "address": "서울 서초구 방배로 189 4층 (방배동)",
    "tel": ""
  },
  {
    "title": "워시존 파주운정점",
    "lat": 37.745595,
    "lng": 126.723399,
    "rat": "",
    "address": "경기 파주시 오도로 54 1층 (오도동)",
    "tel": "070-4322-0505"
  },
  {
    "title": "대안생활공기",
    "lat": 37.551544,
    "lng": 127.127094,
    "rat": "",
    "address": "서울 강동구 암사동 503-10",
    "tel": ""
  },
  {
    "title": "유민얼랏",
    "lat": 37.564388,
    "lng": 126.917488,
    "rat": 5.0,
    "address": "서울 마포구 성미산로17길 68 3호 (연남동)",
    "tel": ""
  },
  {
    "title": "마리앤하우스",
    "lat": 35.184638,
    "lng": 128.560233,
    "rat": 5.0,
    "address": "경남 창원시 마산합포구 3.15대로 53-1 (월남동3가)",
    "tel": ""
  },
  {
    "title": "동그라미리필러리",
    "lat": 37.390228,
    "lng": 127.084345,
    "rat": 5.0,
    "address": "경기 성남시 분당구 판교로33번길 9 1층, 101-1호",
    "tel": "010-6838-4667"
  },
  {
    "title": "달팽이가게",
    "lat": 35.298713,
    "lng": 126.91128,
    "rat": "",
    "address": "전남 담양군 수북면 삼인동길 175-1 (수북면)",
    "tel": ""
  },
  {
    "title": "마이아일랜드",
    "lat": 33.258451,
    "lng": 126.528345,
    "rat": 5.0,
    "address": "제주특별자치도 서귀포시 호근로112번길 24 (호근동)",
    "tel": "070-8809-0707"
  },
  {
    "title": "지구별가게 서호점",
    "lat": 33.253803,
    "lng": 126.522565,
    "rat": 5.0,
    "address": "제주특별자치도 서귀포시 서호로 7-22 (서호동)",
    "tel": "010-8209-0024"
  },
  {
    "title": "지구별가게",
    "lat": 33.253804,
    "lng": 126.522564,
    "rat": 5.0,
    "address": "제주특별자치도 제주시 월랑북2길 16 1층 101호 (서귀포시 서호로 7-22)",
    "tel": "010-8209-0024"
  },
  {
    "title": "모두의부엌",
    "lat": 36.154135,
    "lng": 128.306957,
    "rat": "",
    "address": "경북 구미시 봉곡서로 42 (봉곡동)",
    "tel": "054-455-2454"
  },
  {
    "title": "라마홈",
    "lat": 37.581591,
    "lng": 126.973415,
    "rat": "",
    "address": "서울 종로구 자하문로 48 1층 (창성동)",
    "tel": ""
  },
  {
    "title": "요선당",
    "lat": 37.882357,
    "lng": 127.726484,
    "rat": "",
    "address": "강원 춘천시 서부대성로44번길 10-21 1층 (요선동)",
    "tel": ""
  },
  {
    "title": "송포어스",
    "lat": 37.533405,
    "lng": 127.125461,
    "rat": 5.0,
    "address": "서울 강동구 풍성로35길 34 1층 (성내동)",
    "tel": "070-8095-3534"
  },
  {
    "title": "디어얼스",
    "lat": 37.56966,
    "lng": 126.913439,
    "rat": 5.0,
    "address": "서울 서대문구 수색로 43 104호 (남가좌동)",
    "tel": "070-4485-3388"
  },
  {
    "title": "이지구",
    "lat": 37.273068,
    "lng": 126.936323,
    "rat": "",
    "address": "경기 수원시 권선구 금곡로 45 엘지빌리지종합상가 3층",
    "tel": ""
  },
  {
    "title": "알맹상점",
    "lat": 37.553605,
    "lng": 126.911597,
    "rat": 4.9,
    "address": "서울 마포구 월드컵로 49 2층 (합정동)",
    "tel": "010-2229-1027"
  },
  {
    "title": "지구샵",
    "lat": 37.500737,
    "lng": 126.933859,
    "rat": 4.3,
    "address": "서울 동작구 성대로1길 16 1층 (상도동)",
    "tel": "02-812-2050"
  },
  {
    "title": "더피커",
    "lat": 37.547875,
    "lng": 127.044105,
    "rat": 4.0,
    "address": "서울 성동구 왕십리로 115 헤이그라운드 9층 (성수동1가)",
    "tel": "070-4118-0710"
  }
]
